[{"address":"10 Gukjegeumyung-ro, Yeongdeungpo-gu, Seoul, South Korea","coordinates":{"lat":37.5249367,"lng":126.9252845},"name":"Reebok CrossFit Sentinel IFC","local_name":"크로스핏 센티넬 IFC"},{"address":"272 Seokchonhosu-ro, Songpa-gu, Seoul, South Korea","coordinates":{"lat":37.5099342,"lng":127.1059156},"name":"Reebok CrossFit Able","local_name":"리복 크로스핏 에이블"},{"address":"417 Yeongdong-daero, Gangnam-gu, Seoul, South Korea","coordinates":{"lat":37.5061687,"lng":127.063924},"name":"Reebok CrossFit Sentinel Uptown","local_name":"리복 크로스핏 센티넬 업타운"},{"address":"17 Hannam-daero 21-gil, Yongsan-gu, Seoul, South Korea","coordinates":{"lat":37.53399720000001,"lng":127.0065233},"name":"Reebok CrossFit Sentinel","local_name":"리복 크로스핏 센티넬 원"},{"address":"468 Gangnam-daero, Gangnam-gu, Seoul, South Korea","coordinates":{"lat":37.5041634,"lng":127.0251043},"name":"Reebok CrossFit Fighting Spirit","local_name":"리복 크로스핏 투혼"},{"address":"36 Daehak-ro 8ga-gil, Jongno-gu, Seoul, South Korea","coordinates":{"lat":37.582446,"lng":127.002456},"name":"Reebok CrossFit Maru","local_name":"리복 크로스핏 마루"},{"address":"513 Seolleung-ro, Gangnam-gu, Seoul, South Korea","coordinates":{"lat":37.5052409,"lng":127.04829},"name":"CrossFit Gangnam Seolleung","local_name":"크로스핏 강남 선릉"},{"address":"146 Yeonseo-ro, Eunpyeong-gu, Seoul, South Korea","coordinates":{"lat":37.6117171,"lng":126.9176171},"name":"CrossFit Choigang","local_name":"크로스핏 최강"},{"address":"49 Keunumul-ro, Mapo-gu, Seoul, South Korea","coordinates":{"lat":37.5425545,"lng":126.9441373},"name":"Muhan CrossFit","local_name":"무한 크로스핏"},{"address":"116 Sapyeong-daero, Seocho-gu, Seoul, South Korea","coordinates":{"lat":37.4993027,"lng":126.9971779},"name":"106 Seorae Village CrossFit","local_name":"106 서래빌리지 크로스핏"},{"address":"537 Dosan-daero, Gangnam-gu, Seoul, South Korea","coordinates":{"lat":37.5251355,"lng":127.0523624},"name":"CrossFit CNC","local_name":"크로스핏 씨앤씨"},{"address":"165 Dosan-daero, Gangnam-gu, Seoul, South Korea","coordinates":{"lat":37.5194459,"lng":127.0266103},"name":"CrossFit FNS","local_name":"크로스핏 에프엔에스"},{"address":"578 Gangnam-daero, Gangnam-gu, Seoul, South Korea","coordinates":{"lat":37.5133331,"lng":127.0208292},"name":"CrossFit Gangnam","local_name":"크로스핏 강남"},{"address":"383 Gonghang-daero, Gangseo-gu, Seoul, South Korea","coordinates":{"lat":37.5569123,"lng":126.8502614},"name":"CrossFit Gangseo","local_name":"크로스핏 강서"},{"address":"294 Achasan-ro, Gwangjin-gu, Seoul, South Korea","coordinates":{"lat":37.5381446,"lng":127.0755254},"name":"CrossFit RAON","local_name":"크로스핏 라온"},{"address":"15 Eonju-ro 168-gil, Gangnam-gu, Seoul, South Korea","coordinates":{"lat":37.5263969,"lng":127.0348886},"name":"CrossFit Limelight","local_name":"크로스핏 라임라잇"},{"address":"12 Wausan-ro 18-gil, Mapo-gu, Seoul, South Korea","coordinates":{"lat":37.5506329,"lng":126.923742},"name":"CrossFit SteamPunk","local_name":"크로스핏 스팀펑크"},{"address":"24 Sinchon-ro 16-gil, Mapo-gu, Seoul, South Korea","coordinates":{"lat":37.554581,"lng":126.9343476},"name":"GymPhoenix CrossFit Sinchon","local_name":"짐피닉스 크로스핏"},{"address":"200 Gangnam-daero, Seocho-gu, Seoul, South Korea","coordinates":{"lat":37.482084,"lng":127.0370734},"name":"CrossFit Zest","local_name":"크로스핏 제스트"},{"address":"7 Seorae-ro 8-gil, Seocho-gu, Seoul, South Korea","coordinates":{"lat":37.49868319999999,"lng":126.9989221},"name":"CrossFit Jeain","local_name":"크로스핏 제인"},{"address":"South Korea, Seoul, Songpa-gu, Munjeong-dong, 법원로11길 11","coordinates":{"lat":37.4847745,"lng":127.1184576},"name":"CrossFit Chiwoo","local_name":"크로스핏 치우"},{"address":"108 Dongnam-ro, Songpa-gu, Seoul, South Korea","coordinates":{"lat":37.489574,"lng":127.1233533},"name":"CrossFit Able 2AH","local_name":"크로스핏 에이블 문정"},{"address":"14 Nonhyeon-ro 176-gil, Gangnam-gu, Seoul, South Korea","coordinates":{"lat":37.5269418,"lng":127.0296886},"name":"CrossFit Apgujeong","local_name":"크로스핏 페인스톰"},{"address":"194 OMok-ro, Yangcheon-gu, Seoul, South Korea","coordinates":{"lat":37.52507420000001,"lng":126.8589681},"name":"CrossFit Moodo Mokdong","local_name":"크로스핏 무도(목동)"},{"address":"508 Ogeum-ro, Songpa-gu, Seoul, South Korea","coordinates":{"lat":37.4928298,"lng":127.1450344},"name":"CrossFit Geoyeo","local_name":"크로스핏 거여"},{"address":"450 Dogok-ro, Gangnam-gu, Seoul, South Korea","coordinates":{"lat":37.4980459,"lng":127.0597584},"name":"CrossFit Volcano","local_name":"크로스핏 볼케이노"},{"address":"13-2 Yangsan-ro 19-gil, Yeongdeungpo-gu, Seoul, South Korea","coordinates":{"lat":37.5255724,"lng":126.8948732},"name":"CrossFit SEDA","local_name":"크로스핏 세다"},{"address":"180 Wiryeseong-daero, Songpa-gu, Seoul, South Korea","coordinates":{"lat":37.5100914,"lng":127.1309588},"name":"CrossFit A2F","local_name":"크로스핏 에이투에프"},{"address":"141-30 Samseong-dong, Gangnam-gu, Seoul, South Korea","coordinates":{"lat":37.5053214,"lng":127.0504086},"name":"Any Body Can CrossFit","local_name":"애니바디캔 크로스핏"},{"address":"31 Seogyeong-ro, Seongbuk-gu, Seoul, South Korea","coordinates":{"lat":37.6075032,"lng":127.0141959},"name":"About CrossFit","local_name":"어바웃 크로스핏"},{"address":"122 Choui-ro, Dongdaemun-gu, Seoul, South Korea","coordinates":{"lat":37.5778069,"lng":127.0368983},"name":"CrossFit Dongdaemun","local_name":"크로스핏 동대문"},{"address":"208 Digital-ro, Geumcheon-gu, Seoul, South Korea","coordinates":{"lat":37.4787024,"lng":126.8895139},"name":"Alive Bodies CrossFit ","local_name":"어라이브바디 크로스핏"},{"address":"16 Olympic-ro 10-gil, Songpa-gu, Seoul, South Korea","coordinates":{"lat":37.5101589,"lng":127.0810738},"name":"CrossFit Fierce Battle ","local_name":"크로스핏 피어스배틀"},{"address":"27 Samseong-ro 95-gil, Gangnam-gu, Seoul, South Korea","coordinates":{"lat":37.5073202,"lng":127.053747},"name":"CrossFit Maya","local_name":"크로스핏 마야"},{"address":"Gil-dong, Seoul, South Korea","coordinates":{"lat":37.5375975,"lng":127.1484537},"name":"CrossFit Gangdong","local_name":"크로스핏 강동"},{"address":"20 Teheran-ro 20-gil, Gangnam-gu, Seoul, South Korea","coordinates":{"lat":37.4983242,"lng":127.0344945},"name":"CrossFit Yeoksam","local_name":"크로스핏 비몬"},{"address":"286 Beotkkot-ro, Geumcheon-gu, Seoul, South Korea","coordinates":{"lat":37.4803075,"lng":126.8841943},"name":"Aimer CrossFit ","local_name":"에이머 크로스핏"},{"address":"454 Gangseo-ro, Gangseo-gu, Seoul, South Korea","coordinates":{"lat":37.5658273,"lng":126.8409739},"name":"CrossFit Ray","local_name":"크로스핏 레이"},{"address":"9 Wausan-ro 23-gil, Mapo-gu, Seoul, South Korea","coordinates":{"lat":37.5533991,"lng":126.9243428},"name":"CrossFit A to Z","local_name":"크로스핏 에이투지"},{"address":"18-4 Gomurae-ro, Seocho-gu, Seoul, South Korea","coordinates":{"lat":37.5029432,"lng":127.0101311},"name":"CrossFit 4TP","local_name":"크로스핏 4TP"},{"address":"31 Dongmak-ro 9-gil, Mapo-gu, Seoul, South Korea","coordinates":{"lat":37.5496562,"lng":126.9202003},"name":"Inner Peace CrossFit ","local_name":"이너피스 크로스핏"},{"address":"375 Cheonho-daero, Dongdaemun-gu, Seoul, South Korea","coordinates":{"lat":37.5623325,"lng":127.060727},"name":"CrossFit FBJ","local_name":"크로스핏 에프비제이"},{"address":"204 Bangbaejungang-ro, Seocho-gu, Seoul, South Korea","coordinates":{"lat":37.4973099,"lng":126.9857055},"name":"CrossFit Hiverse","local_name":"크로스핏 하이브"},{"address":"22-3 Yonsei-ro 5da-gil, Seodaemun-gu, Seoul, South Korea","coordinates":{"lat":37.5567266,"lng":126.9342786},"name":"CrossFit SteamPunk 2","local_name":"크로스핏 스팀펑크2"},{"address":"154 Hwagok-ro, Gangseo-gu, Seoul, South Korea","coordinates":{"lat":37.5408792,"lng":126.8390021},"name":"CrossFit Hwagok","local_name":"크로스핏 화곡"},{"address":"33 Mapo-daero, Mapo-gu, Seoul, South Korea","coordinates":{"lat":37.5399759,"lng":126.9454625},"name":"CrossFit Dokkaebi","local_name":"크로스핏 도깨비"},{"address":"1544-4 Seocho 3(sam)-dong, Seocho-gu, Seoul, South Korea","coordinates":{"lat":37.4886515,"lng":127.0095802},"name":"CrossFit Zest Seocho","local_name":"크로스핏 제스트 서초점"},{"address":"100 Olympic-ro, Songpa-gu, Seoul, South Korea","coordinates":{"lat":37.5113773,"lng":127.0816775},"name":"CrossFit Jamsil","local_name":"크로스핏 잠실"},{"address":"1799 Nambusunhwan-ro, Gwanak-gu, Seoul, South Korea","coordinates":{"lat":37.4818353,"lng":126.9501233},"name":"CrossFit Jungang","local_name":"크로스핏 중앙"},{"address":"566-1 Bongcheon-ro, Gwanak-gu, Seoul, South Korea","coordinates":{"lat":37.4773258,"lng":126.9603426},"name":"CrossFit KTG","local_name":"쿠타짐"},{"address":"72 Gukjegeumyung-ro, Yeongdeungpo-gu, Seoul, South Korea","coordinates":{"lat":37.5210792,"lng":126.930823},"name":"CrossFit HON","local_name":"크로스핏 혼"},{"address":"18 Nohae-ro 65-gil, Dobong-gu, Seoul, South Korea","coordinates":{"lat":37.6521378,"lng":127.046458},"name":"CrossFit Changdong","local_name":"창동 크로스핏 슬램 "},{"address":"519 Gonghang-daero, Gangseo-gu, Seoul, South Korea","coordinates":{"lat":37.5517134,"lng":126.8641347},"name":"Modu CrossFit","local_name":"모두 크로스핏"},{"address":"133-2 Dongsomundong 6(yuk)-ga, Seongbuk-gu, Seoul, South Korea","coordinates":{"lat":37.5928934,"lng":127.0161873},"name":"CrossFit Euddeum","local_name":"크로스핏 으뜸"},{"address":"392-11 Gangseo-ro, Gangseo-gu, Seoul, South Korea","coordinates":{"lat":37.5607155,"lng":126.8397503},"name":"CrossFit Balsan","local_name":"아카 크로스핏"},{"address":"6 Mullae-ro 26-gil, Yeongdeungpo-gu, Seoul, South Korea","coordinates":{"lat":37.5181499,"lng":126.8974974},"name":"CrossFit Mullae","local_name":"크로스핏 킹콩"},{"address":"228-6 Yeongsin-ro, Yeongdeungpo-gu, Seoul, South Korea","coordinates":{"lat":37.5273352,"lng":126.9040926},"name":"CrossFit Dang San","local_name":"크로스핏 무브먼트"},{"address":"10 Hyoryeong-ro 2-gil, Seocho-gu, Seoul, South Korea","coordinates":{"lat":37.4761736,"lng":126.9869194},"name":"CrossFit Beeline","local_name":"크로스핏 사당"},{"address":"349 Gangnam-daero, Seocho-gu, Seoul, South Korea","coordinates":{"lat":37.4938618,"lng":127.0289474},"name":"Any Body Can CrossFit GNDR","local_name":"애니바디캔 크로스핏 강남대로점"},{"address":"1341 Dongil-ro, Nowon-gu, Seoul, South Korea","coordinates":{"lat":37.6482931,"lng":127.0620751},"name":"CrossFit HNF","local_name":"크로스핏 에이치엔에프"},{"address":"324 Dobong-ro, Gangbuk-gu, Seoul, South Korea","coordinates":{"lat":37.6367563,"lng":127.0248519},"name":"CrossFit Beon-Dong","local_name":"크로스핏 던전"},{"address":"7 Haedeung-ro 16-gil, Dobong-gu, Seoul, South Korea","coordinates":{"lat":37.6563467,"lng":127.0408113},"name":"YG CrossFit","local_name":"크로스핏 YG 현무"},{"address":"214 Bongeunsa-ro, Gangnam-gu, Seoul, South Korea","coordinates":{"lat":37.5074947,"lng":127.0357733},"name":"CrossFit Gangnam Eonju","local_name":"박스앤짐"},{"address":"47 Imun-ro, Dongdaemun-gu, Seoul, South Korea","coordinates":{"lat":37.5915886,"lng":127.0568016},"name":"Haul CrossFit","local_name":"크로스핏 리스펙"},{"address":"14 Yeouidaebang-ro 54-gil, Dongjak-gu, Seoul, South Korea","coordinates":{"lat":37.5118456,"lng":126.9266791},"name":"Poss CrossFit","local_name":"포스크로스핏"},{"address":"256 Jungdong-ro, Wonmi-gu, Bucheon, Gyeonggi-do, South Korea","coordinates":{"lat":37.502532,"lng":126.7692138},"name":"R2G CrossFit","local_name":"알투지크로스핏"},{"address":"12 Bugwang-ro, Sosa-gu, Bucheon, Gyeonggi-do, South Korea","coordinates":{"lat":37.483556,"lng":126.8127601},"name":"CrossFit KK 2","local_name":"크로스핏 킹콩(2호점)"},{"address":"486 Gwanak-daero, Dongan-gu, Anyang, Gyeonggi-do, South Korea","coordinates":{"lat":37.4022614,"lng":126.9757825},"name":"CrossFit Ara","local_name":"크로스핏 아라"},{"address":"353 Hwangsaeul-ro, Bundang-gu, Seongnam-si, Gyeonggi-do, South Korea","coordinates":{"lat":37.3871137,"lng":127.1236928},"name":"CrossFit Raccoon","local_name":"크로스핏 라쿤"},{"address":"19 Seohyeon-ro 180(baekpalsip)beo, Bundang-gu, Seongnam-si, Gyeonggi-do, South Korea","coordinates":{"lat":37.3873091,"lng":127.1224608},"name":"CrossFit Bundang","local_name":"크로스핏 분당"},{"address":"20-10 Dongtanbansong 1-gil, Hwaseong-si, Gyeonggi-do, South Korea","coordinates":{"lat":37.209339,"lng":127.0627971},"name":"CrossFit Teddygym Dongtan City","local_name":"크로스핏 테디짐 동탄점"},{"address":"273 Dongbaekjungangro, Giheung-gu, Yongin-si, Gyeonggi-do, South Korea","coordinates":{"lat":37.2769878,"lng":127.1533722},"name":"CrossFit Jjang","local_name":"크로스핏 짱"},{"address":"6 Seongnam-daero 926(gubaegisiby, Bundang-gu, Seongnam-si, Gyeonggi-do, South Korea","coordinates":{"lat":37.412155,"lng":127.1298683},"name":"CrossFit Top Dog","local_name":"크로스핏 탑독"},{"address":"226 Buil-ro, Wonmi-gu, Bucheon, Gyeonggi-do, South Korea","coordinates":{"lat":37.4881757,"lng":126.7550075},"name":"CrossFit Guts","local_name":"크로스핏 거츠"},{"address":"15 Jeongjail-ro 198(baekgusippal), Bundang-gu, Seongnam-si, Gyeonggi-do, South Korea","coordinates":{"lat":37.3676388,"lng":127.1076724},"name":"CrossFit Teddygym Jeongja","local_name":"크로스핏 테디짐 정자"},{"address":"249 Jungbu-daero, Paldal-gu, Suwon, Gyeonggi-do, South Korea","coordinates":{"lat":37.2752717,"lng":127.0434046},"name":"CrossFit Aura Sidae","local_name":"크로스핏 아우라 시대"},{"address":"312 Gwanak-daero, Dongan-gu, Anyang, Gyeonggi-do, South Korea","coordinates":{"lat":37.4027399,"lng":126.9576433},"name":"CrossFit HIM","local_name":"크로스핏 힘"},{"address":"25 Dongpangyo-ro 177(baekchilsipc, Sampyeong-dong, Bundang-gu, Seongnam-si, Gyeonggi-do, South Korea","coordinates":{"lat":37.3971772,"lng":127.1134365},"name":"Reebok CrossFit Sentinel Avenue","local_name":"리복 크로스핏 센티넬 아브뉴"},{"address":"South Korea, Gyeonggi-do, Hwaseong-si, 노작로 161","coordinates":{"lat":37.2025012,"lng":127.0731931},"name":"CrossFit Marvel","local_name":"크로스핏 마블"},{"address":"South Korea, Gyeonggi-do, Goyang-si, Ilsandong-gu, 중앙로 1187","coordinates":{"lat":37.652577,"lng":126.7768691},"name":"CrossFit Moodori","local_name":"크로스핏 무도"},{"address":"56 Daepyeong-ro 51beon-gil, Jangan-gu, Suwon, Gyeonggi-do, South Korea","coordinates":{"lat":37.292145,"lng":126.9906352},"name":"CrossFit Aura","local_name":"크로스핏 아우라"},{"address":"439 Heungan-daero, Dongan-gu, Anyang, Gyeonggi-do, South Korea","coordinates":{"lat":37.3940475,"lng":126.9743527},"name":"CrossFit ILC","local_name":"아이러브크로스핏"},{"address":"117 Bojeong-ro, Giheung-gu, Yongin-si, Gyeonggi-do, South Korea","coordinates":{"lat":37.3198072,"lng":127.114315},"name":"CrossFit Teddygym","local_name":"크로스핏 테디짐"},{"address":"6 Yonggudaero2771Beon-gil, Suji-gu, Yongin-si, Gyeonggi-do, South Korea","coordinates":{"lat":37.3334177,"lng":127.1082635},"name":"CrossFit Chiwoo Jukjeon","local_name":"크로스핏 치우 죽전점"},{"address":"18 Hyowon-ro 265beon-gil, Paldal-gu, Suwon, Gyeonggi-do, South Korea","coordinates":{"lat":37.2627548,"lng":127.0312225},"name":"CrossFit Hot Place","local_name":"크로스핏 핫 플레이스"},{"address":"47 Hyowon-ro 307beon-gil, Paldal-gu, Suwon, Gyeonggi-do, South Korea","coordinates":{"lat":37.2629932,"lng":127.0359218},"name":"CrossFit SCH","local_name":"수원 크로스핏 히어로"},{"address":"23-1 Hanyangdaehak-ro, Sangnok-gu, Ansan-si, Gyeonggi-do, South Korea","coordinates":{"lat":37.3011645,"lng":126.8409095},"name":"CrossFit Erica","local_name":"크로스핏 에리카"},{"address":"79 Minsokgongwon-ro, Danwon-gu, Ansan-si, Gyeonggi-do, South Korea","coordinates":{"lat":37.3124997,"lng":126.8385898},"name":"CrossFit Erica Gojan","local_name":"크로스핏 에리카 고잔"},{"address":"62 Gwangdeokseo-ro, Danwon-gu, Ansan-si, Gyeonggi-do, South Korea","coordinates":{"lat":37.3101764,"lng":126.8274091},"name":"KTT CrossFit","local_name":"코리안탑팀 크로스핏"},{"address":"90 Minsokgongwon-ro, Danwon-gu, Ansan-si, Gyeonggi-do, South Korea","coordinates":{"lat":37.3132718,"lng":126.8390337},"name":"CrossFit A4U","local_name":"에이포유 크로스핏"},{"address":"78 Byeongjeomdong-ro, Hwaseong-si, Gyeonggi-do, South Korea","coordinates":{"lat":37.2111647,"lng":127.0415196},"name":"CrossFit BUM","local_name":"크로스핏 범"},{"address":"Howon-dong, Uijeongbu-si, South Korea","coordinates":{"lat":37.7214607,"lng":127.0464591},"name":"CrossFit IGA","local_name":"의정부 크로스핏(크로스핏 IGA)"},{"address":"95 Biu-ro, Euijeongbu, Gyeonggi-do, South Korea","coordinates":{"lat":37.7585478,"lng":127.0370895},"name":"CrossFit Sean","local_name":"크로스핏 션"},{"address":"1318 Hoguk-ro, Euijeongbu, Gyeonggi-do, South Korea","coordinates":{"lat":37.743386,"lng":127.0506986},"name":"CrossFit Vegapunk","local_name":"의정부 크로스핏 그라운드 제로"},{"address":"5 Sanseong-daero 265(ibaegyuksib, Sujeong-gu, Seongnam-si, Gyeonggi-do, South Korea","coordinates":{"lat":37.4410401,"lng":127.1461178},"name":"CrossFit SN Box","local_name":"크로스핏 성남"},{"address":"459-8 Deokpung-dong, Hanam-si, Gyeonggi-do, South Korea","coordinates":{"lat":37.5372843,"lng":127.2050116},"name":"HNXT CrossFit","local_name":"하남익스트림 크로스핏"},{"address":"799-1 Songsan-dong, Ilsanseo-gu, Goyang-si, Gyeonggi-do, South Korea","coordinates":{"lat":37.695909,"lng":126.7408277},"name":"CrossFit Pung Ryu","local_name":"크로스핏 풍류"},{"address":"37 Aju-ro, Paldal-gu, Suwon, Gyeonggi-do, South Korea","coordinates":{"lat":37.2781886,"lng":127.0435323},"name":"CrossFit Mate S","local_name":"크로스핏 메이트"},{"address":"Seojeong-dong, Pyeongtaek-si, South Korea","coordinates":{"lat":37.0666526,"lng":127.0568925},"name":"CrossFit Pyeongtaek","local_name":"크로스핏 평택 Gym D"},{"address":"33 Jisan-ro, Pyeongtaek, Gyeonggi-do, South Korea","coordinates":{"lat":37.0793298,"lng":127.0586392},"name":"CrossFit KK","local_name":"크로스핏 킹콩"},{"address":"South Korea, Gyeonggi-do, Suwon, Jangan-gu, 서부로 2132","coordinates":{"lat":37.2985803,"lng":126.9721776},"name":"CrossFit Hi","local_name":"크로스핏 하이"},{"address":"6 Byeongmogan-ro, Manan-gu, Anyang, Gyeonggi-do, South Korea","coordinates":{"lat":37.399659,"lng":126.9195857},"name":"CrossFit Manan","local_name":"안양 크로스핏 루키"},{"address":"40 Juhwa-ro, Ilsanseo-gu, Goyang-si, Gyeonggi-do, South Korea","coordinates":{"lat":37.6683463,"lng":126.7632909},"name":"CrossFit EHLIL","local_name":"크로스핏 태극"},{"address":"721 Geumnam-ri, Hwado-eup, Namyangju-si, Gyeonggi-do, South Korea","coordinates":{"lat":37.61367449999999,"lng":127.3429326},"name":"CrossFit Ole","local_name":"크로스핏 올레"},{"address":"South Korea, Gyeonggi-do, Namyangju-si, Byeollae-dong, Byeollaejungang-ro, 34","coordinates":{"lat":37.64611920000001,"lng":127.1253288},"name":"CrossFit Saulabi","local_name":"크로스핏 싸울아비 복싱"},{"address":"7 Cheyukgwan-ro 171beon-gil, Guri-si, Gyeonggi-do, South Korea","coordinates":{"lat":37.5997193,"lng":127.1355933},"name":"CrossFit Guri","local_name":"크로스핏 스팟"},{"address":"131 Annyang-ro, Manan-gu, Anyang, Gyeonggi-do, South Korea","coordinates":{"lat":37.3860659,"lng":126.931614},"name":"CrossFit Cheonha","local_name":"크로스핏 천하"},{"address":"29 Haedoji-ro 84beon-gil, Yeonsu-gu, Incheon, South Korea","coordinates":{"lat":37.3918972,"lng":126.6533032},"name":"CrossFit SOS","local_name":"크로스핏 에스오에스"},{"address":"118 Haedoji-ro, Yeonsu-gu, Incheon, South Korea","coordinates":{"lat":37.3922988,"lng":126.6495649},"name":"Songdo CrossFit","local_name":"송도 크로스핏"},{"address":"162-1 Nonhyeongojan-ro, Namdong-gu, Incheon, South Korea","coordinates":{"lat":37.3965597,"lng":126.7159557},"name":"CrossFit 032","local_name":"크로스핏 032"},{"address":"339 Hyoseo-ro, Gyeyang-gu, Incheon, South Korea","coordinates":{"lat":37.5282011,"lng":126.7339036},"name":"CrossFit Soop","local_name":"크로스핏 숲"},{"address":"3 Artcenter-ro 44beon-gil, Bupyeong-gu, Incheon, South Korea","coordinates":{"lat":37.4718615,"lng":126.7034698},"name":"CrossFIt Maha","local_name":"크로스핏 마하"},{"address":"100 Juan-ro, Nam-gu, Incheon, South Korea","coordinates":{"lat":37.4637977,"lng":126.6806298},"name":"CrossFit Juan","local_name":"크로스핏 주안"},{"address":"68 Sajik-daero, Heungdeok-gu, Cheongju, Chungcheongbuk-do, South Korea","coordinates":{"lat":36.6342977,"lng":127.4549966},"name":"CrossFit Hellbent","local_name":"크로스핏 헬벤트"},{"address":"Gyo-ri, Jochiwon-eup, Yeongi-gun, Chungcheongnam-do, South Korea","coordinates":{"lat":36.6056595,"lng":127.2970401},"name":"CrossFit Holic ","local_name":"크로스핏 홀릭"},{"address":"133-5 Namsa-ro, Sangdang-gu, Cheongju, Chungcheongbuk-do, South Korea","coordinates":{"lat":36.6324128,"lng":127.4898812},"name":"CrossFit Geukgang","local_name":"크로스핏 극강"},{"address":"2 Wongeori 7-gil, Dongnam-gu, Cheonan, Chungcheongnam-do, South Korea","coordinates":{"lat":36.7989187,"lng":127.1537969},"name":"CrossFit Genie","local_name":"크로스핏 지니"},{"address":"21 Baekseok 4-gil, Seobuk-gu, Cheonan, Chungcheongnam-do, South Korea","coordinates":{"lat":36.82268699999999,"lng":127.1238446},"name":"CrossFit GR ","local_name":"크로스핏 가우르"},{"address":"762 Seobu-daero, Seobuk-gu, Cheonan, Chungcheongnam-do, South Korea","coordinates":{"lat":36.8351631,"lng":127.1338661},"name":"CrossFit Doklip","local_name":"크로스핏 독립"},{"address":"41 Ssangyong 16-gil, Seobuk-gu, Cheonan, Chungcheongnam-do, South Korea","coordinates":{"lat":36.7975376,"lng":127.1220323},"name":"CrossFit Shout","local_name":"크로스핏 샤우트"},{"address":"52 Oseong-ro, Seobuk-gu, Cheonan, Chungcheongnam-do, South Korea","coordinates":{"lat":36.8301781,"lng":127.13303},"name":"Winner CrossFit","local_name":"크로스핏 위너"},{"address":"17 Dunsanseo-ro, Seo-gu, Daejeon, South Korea","coordinates":{"lat":36.3482238,"lng":127.382598},"name":"CrossFit G zone","local_name":"크로스핏 지존"},{"address":"56 Eungubinam-ro 33beon-gil, Yuseong-gu, Daejeon, South Korea","coordinates":{"lat":36.3748238,"lng":127.3195309},"name":"CrossFit Ter","local_name":"크로스핏 터"},{"address":"41 Cheongsaseo-ro, Seo-gu, Daejeon, South Korea","coordinates":{"lat":36.3616171,"lng":127.3756483},"name":"CrossFit Agit","local_name":"크로스핏 아지트"},{"address":"156 Haseulla-ro, Gangneung, Gangwon-do, South Korea","coordinates":{"lat":37.7636766,"lng":128.8748271},"name":"CrossFit LOL","local_name":"크로스핏 엘오엘"},{"address":"584 Namwon-ro, Weonju, Gangwon-do, South Korea","coordinates":{"lat":37.3355841,"lng":127.9494682},"name":"Wonju CrossFit M.I.B","local_name":"엠아이비 크로스핏"},{"address":"56 Jeongwon-ro, Gangneung, Gangwon-do, South Korea","coordinates":{"lat":37.7625453,"lng":128.8756264},"name":"Dot CrossFit","local_name":"크로스핏 디오티"},{"address":"145-3 Gongji-ro, Chuncheon, Gangwon-do, South Korea","coordinates":{"lat":37.8586892,"lng":127.7454579},"name":"Rising Force CrossFit","local_name":"라이징포스 크로스핏(크로스핏 레이크사이드)"},{"address":"South Korea, Gangwon-do, Chuncheon, 중앙로 16","coordinates":{"lat":37.8833199,"lng":127.7286607},"name":"CrossFit Presto","local_name":"크로스핏 업템포"},{"address":"279-22 Geunhwa-dong, Chuncheon, Gangwon-do, South Korea","coordinates":{"lat":37.8724547,"lng":127.717626},"name":"CrossFit Chuncheon","local_name":"크로스핏 무도 춘천"},{"address":"7 Susongbuk-ro, Gunsan, Jeollabuk-do, South Korea","coordinates":{"lat":35.9671289,"lng":126.7152123},"name":"CrossFit Gunsan","local_name":"크로스핏 군산"},{"address":"19 Cheonmasan-ro, Deokjin-gu, Jeonju, Jeollabuk-do, South Korea","coordinates":{"lat":35.8639077,"lng":127.1236784},"name":"CrossFit Fantom","local_name":"크로스핏 펜텀"},{"address":"277 Yuyeon-ro, Wansan-gu, Jeonju, Jeollabuk-do, South Korea","coordinates":{"lat":35.825542,"lng":127.1160578},"name":"Lets CrossFit","local_name":"Lets CrossFit"},{"address":"Mohyeon 1(il)-ga, Iksan-si, Jeollabuk-do, South Korea","coordinates":{"lat":35.94861170000001,"lng":126.9414493},"name":"CrossFit Iksan","local_name":"크로스핏 익산"},{"address":"109 Chunghyo-ro, Suncheon, Jeollanam-do, South Korea","coordinates":{"lat":34.948586,"lng":127.5149215},"name":"CrossFit Yain","local_name":"크로스핏 야인"},{"address":"34 Hakdongseo 3-gil, Yeosu, Jeollanam-do, South Korea","coordinates":{"lat":34.7656277,"lng":127.6599841},"name":"CrossFit Rainbow","local_name":"크로스핏 여수"},{"address":"South Korea, Jeollanam-do, Yeosu, Sijeon-dong, Yeulmaru-ro, 100","coordinates":{"lat":34.7498095,"lng":127.6649899},"name":"CrossFit Yain Yeosu","local_name":"크로스핏 야인 여수"},{"address":"3 Sudeung-ro 258beon-gil, Gwangsan-gu, Kwangju, South Korea","coordinates":{"lat":35.1847914,"lng":126.8372457},"name":"CrossFit Singa","local_name":"크로스핏 버서커"},{"address":"19-1 Munhwajeondang-ro, Dong-gu, Kwangju, South Korea","coordinates":{"lat":35.1443709,"lng":126.9194204},"name":"CrossFit Mudeung","local_name":"크로스핏 무등"},{"address":"76 Chipyeong-ro, Seo-gu, Kwangju, South Korea","coordinates":{"lat":35.1540599,"lng":126.8478153},"name":"CrossFit GTP","local_name":"광주크로스핏태풍"},{"address":"106 Chipyeong-ro, Seo-gu, Kwangju, South Korea","coordinates":{"lat":35.1568038,"lng":126.8478184},"name":"CrossFit Mir","local_name":"크로스핏 미르"},{"address":"5 Obang-ro, Nam-gu, Kwangju, South Korea","coordinates":{"lat":35.1262645,"lng":126.918884},"name":"CrossFit Bongsun","local_name":"크로스핏 봉선"},{"address":"173 Seoljuk-ro, Buk-gu, Kwangju, South Korea","coordinates":{"lat":35.1753203,"lng":126.8959637},"name":"CrossFit YongBong","local_name":"크로스핏 용봉"},{"address":"22 Cheomdanjungang-ro 182(baekpal, Gwangsan-gu, Kwangju, South Korea","coordinates":{"lat":35.221664,"lng":126.8437663},"name":"CrossFit GSK","local_name":"크로스핏 쇼크"},{"address":"8 Daehak-ro 53-gil, Gyeongsan, Gyeongsangbuk-do, South Korea","coordinates":{"lat":35.8366783,"lng":128.7516612},"name":"CrossFit Win Your Body","local_name":"크로스핏 코난"},{"address":"23 Indonggasan-ro, Gumi, Gyeongsangbuk-do, South Korea","coordinates":{"lat":36.10677039999999,"lng":128.4195085},"name":"CrossFit Macho","local_name":"크로스핏 마초"},{"address":"36 Okgyebuk-ro, Gumi, Gyeongsangbuk-do, South Korea","coordinates":{"lat":36.1380713,"lng":128.4215107},"name":"BM4 CrossFit","local_name":"크로스핏 매니악"},{"address":"102 Myeongdeok-ro, Nam-gu, Daegu, South Korea","coordinates":{"lat":35.8567356,"lng":128.5812824},"name":"CrossFit Gaon","local_name":"크로스핏 가온"},{"address":"116 Chimsannam-ro, Buk-gu, Daegu, South Korea","coordinates":{"lat":35.8884062,"lng":128.5877275},"name":"CrossFit Tiempo","local_name":"크로스핏 타임"},{"address":"144 Chimsan-ro, Buk-gu, Daegu, South Korea","coordinates":{"lat":35.8892511,"lng":128.5915207},"name":"Starting Power CrossFit","local_name":"스타팅 파워 크로스핏"},{"address":"3308 Dalgubeol-daero, Suseong-gu, Daegu, South Korea","coordinates":{"lat":35.834326,"lng":128.7175745},"name":"CrossFit Tuzi","local_name":"크로스핏 투지"},{"address":"72-1 Sangin-dong, Dalseo-gu, Daegu, South Korea","coordinates":{"lat":35.8194131,"lng":128.5361745},"name":"S4 CrossFit ","local_name":"에스4크로스핏"},{"address":"2510 Dalgubeol-daero, Suseong-gu, Daegu, South Korea","coordinates":{"lat":35.85846,"lng":128.6372316},"name":"CrossFit Heron","local_name":"크로스핏 수성"},{"address":"13 Keungol-gil, Nam-gu, Daegu, South Korea","coordinates":{"lat":35.8381891,"lng":128.5775363},"name":"CrossFit BBS","local_name":"크로스핏 찰짐"},{"address":"1-1 Jibeom-ro 1-gil, Suseong-gu, Daegu, South Korea","coordinates":{"lat":35.8293942,"lng":128.6243674},"name":"CrossFit Hwarang","local_name":"크로스핏 화랑"},{"address":"90 Yongji-ro, Seongsan-gu, Gyeongsangnam-do, South Korea","coordinates":{"lat":35.223654,"lng":128.6776104},"name":"CrossFit G.P.P.","local_name":"크로스핏 지피피"},{"address":"151 Yongji-ro, Uichang-gu, Gyeongsangnam-do, South Korea","coordinates":{"lat":35.2286009,"lng":128.6808341},"name":"CrossFit 7776","local_name":"크로스핏 7776"},{"address":"656 Woni-daero, Seongsan-gu, Gyeongsangnam-do, South Korea","coordinates":{"lat":35.2242425,"lng":128.6851665},"name":"CrossFit Bmon Sangnam","local_name":"크로스핏 비몬 상남"},{"address":"6 Changi-daero 113beon-gil, Uichang-gu, Gyeongsangnam-do, South Korea","coordinates":{"lat":35.2421736,"lng":128.6499661},"name":"CrossFit Spunk Myeongseo","local_name":"크로스핏 스펑크 명서"},{"address":"129 Yangdeogyet 2-gil, Masanhoewon-gu, Gyeongsangnam-do, South Korea","coordinates":{"lat":35.2334717,"lng":128.5798168},"name":"CrossFit Changwon","local_name":"몽키스쿼트"},{"address":"16 Pyeonggeo-ro 9beon-gil, Jinju, Gyeongsangnam-do, South Korea","coordinates":{"lat":35.1729477,"lng":128.0618712},"name":"Jinju J.O Gym CrossFit","local_name":"진주 죠짐 크로스핏"},{"address":"Pyeongsan-dong, Yangsan-si, Gyeongsangnam-do, South Korea","coordinates":{"lat":35.3833096,"lng":129.1486962},"name":"CrossFit Yangsan","local_name":"크로스핏 토르(양산)"},{"address":"58 Gachon-ro, Mulgeum-eup, Yangsan, Gyeongsangnam-do, South Korea","coordinates":{"lat":35.3174271,"lng":128.9898736},"name":"CrossFit XTM Mulgeum","local_name":"크로스핏 엑스티엠 물금점"},{"address":"6 Samsanjung-ro74beon-gil, Nam-gu, Ulsan, South Korea","coordinates":{"lat":35.5401388,"lng":129.3363184},"name":"CrossFit Believable","local_name":"크로스핏 빌리버블"},{"address":"6 Jeolmeumui 1geori, Jung-gu, Ulsan, South Korea","coordinates":{"lat":35.55321260000001,"lng":129.3189197},"name":"CrossFit Mujeock","local_name":"크로스핏 무적"},{"address":"10 Samsan-ro45beon-gil, Nam-gu, Ulsan, South Korea","coordinates":{"lat":35.5345338,"lng":129.312664},"name":"CrossFit 660","local_name":"크로스핏 660"},{"address":"110 Daehak-ro, Nam-gu, Ulsan, South Korea","coordinates":{"lat":35.5444959,"lng":129.2610601},"name":"CrossFit S.L.B.","local_name":"세컨드라이프박스"},{"address":"7 Bupyeong 1-gil, Jung-gu, Busan, South Korea","coordinates":{"lat":35.099793,"lng":129.0255482},"name":"CrossFit Sechan","local_name":"크로스핏 세찬"},{"address":"237 Gwanganhaebyeon-ro, Suyeong-gu, Busan, South Korea","coordinates":{"lat":35.1547291,"lng":129.1199445},"name":"Reebok CrossFit Sound Wave","local_name":"리복 크로스핏 사운드웨이브"},{"address":"32 Centum 3-ro, Haeundae, Busan, South Korea","coordinates":{"lat":35.1666972,"lng":129.1338439},"name":"Reebok CrossFit XTM","local_name":"리복 크로스핏 엑스티엠"},{"address":"28 Seojeon-ro 10beon-gil, Busanjin-gu, Busan, South Korea","coordinates":{"lat":35.1567583,"lng":129.0599106},"name":"Reebok CrossFit XTM2","local_name":"리복 크로스핏 엑스티엠2"},{"address":"271-5 Geumgang-ro, Geumjeong-gu, Busan, South Korea","coordinates":{"lat":35.2322676,"lng":129.0849661},"name":"J.O Gym CrossFit","local_name":"죠짐 크로스핏"},{"address":"2 Nakdong-daero 486(sabaekpalsib, Saha-gu, Busan, South Korea","coordinates":{"lat":35.107777,"lng":128.9679496},"name":"CrossFit Heartbeat","local_name":"크로스핏 하트비트"},{"address":"1091 Jungang-daero, Yeonje-gu, Busan, South Korea","coordinates":{"lat":35.1853963,"lng":129.0807064},"name":"CrossFit Marid ","local_name":"크로스핏 바벨몬스터"},{"address":"12 Sajikbuk-ro, Dongnae-gu, Busan, South Korea","coordinates":{"lat":35.1969517,"lng":129.0608641},"name":"CrossFit Marvin","local_name":"크로스핏 마빈"},{"address":"34 Gwangbokjungang-ro, Jung-gu, Busan, South Korea","coordinates":{"lat":35.1023885,"lng":129.031134},"name":"CrossFit Hae Sung","local_name":"크로스핏 해성"},{"address":"54 Jungang-daero 691beon-gil, Busanjin-gu, Busan, South Korea","coordinates":{"lat":35.1546463,"lng":129.0560946},"name":"CrossFit BTP","local_name":"라이언짐"},{"address":"35 Haeundaehaebyeon-ro, Haeundae, Busan, South Korea","coordinates":{"lat":35.1641143,"lng":129.1382272},"name":"CrossFit Haeundae","local_name":"크로스핏 해운대"},{"address":"9 Daedong-ro, Sasang-gu, Busan, South Korea","coordinates":{"lat":35.1322835,"lng":128.9726647},"name":"CrossFit Uju","local_name":"크로스핏 우주"},{"address":"8 Hwangnyeong-daero 492beon, Nam-gu, Busan, South Korea","coordinates":{"lat":35.1380323,"lng":129.1071495},"name":"CrossFit Dae-Young","local_name":"크로스핏 대영"},{"address":"263 Seogwang-ro, Cheju, Jeju-do, South Korea","coordinates":{"lat":33.5002201,"lng":126.5246569},"name":"CrossFit Dolmengi","local_name":"크로스핏 돌멩이"}]